{
  "id": "shuri-pm-a",
  "title": "Aコース 世界遺産・王国",
  "parent": "shuri-pm",
  "requirePhoto": true,
  "goalText": "13:50までに守礼門にもどろう！ 「さんぽの記録」を先生に見せてゴール！",
  "contact": "引率（比嘉）090-6858-5626 ／ 那覇GC 098-917-0501",
  "checklist": ["石だたみの道", "赤瓦の屋根", "石垣（グスクの石）", "古い門・拝所", "大きな木・自然", "昔ながらのお店・工房", "坂道のまちなみ"],
  "spots": [
    { "id": "a1", "name": "守礼門", "lat": 26.2181477, "lng": 127.7168902, "radius": 50, "gpsRequired": true, "info": "二千円札にもなった首里城の顔。Aコースの出発点。", "task": "📷 守礼門の前で記念写真をとろう。" },
    { "id": "a2", "name": "園比屋武御嶽石門 ★世界遺産", "lat": 26.2180954, "lng": 127.7173263, "radius": 40, "gpsRequired": true, "info": "王様が旅の安全を祈った石の門。世界遺産のひとつ。", "task": "📷 石の門を写真にとろう。" },
    { "id": "a3", "name": "玉陵（たまうどぅん）★世界遺産", "lat": 26.2181266, "lng": 127.714654, "radius": 50, "gpsRequired": true, "info": "琉球国王のお墓。石でできた宮殿のよう。※有料・拝観時間あり。", "task": "📷 石づかいに注目して写真をとろう。" },
    { "id": "a4", "name": "円覚寺跡", "lat": 26.2184813, "lng": 127.719063, "radius": 50, "gpsRequired": true, "info": "琉球で一番格の高かったお寺のあと。静かな場所。", "task": "📷 静かな雰囲気を写真とメモでのこそう。" },
    { "id": "a5", "name": "弁財天堂・円鑑池", "lat": 26.2184299, "lng": 127.7185568, "radius": 70, "gpsRequired": true, "info": "池にうかぶお堂。風情たっぷりのスポット。", "task": "📷 池とお堂を写真にとろう。" },
    { "id": "a6", "name": "龍潭（りゅうたん）", "lat": 26.219468, "lng": 127.7177105, "radius": 70, "gpsRequired": true, "info": "王朝時代につくられた池。水辺の景色がきれい。", "task": "📷 龍潭の景色を写真にとろう。" }
  ]
}
